,city,country,lat,lng,humidity,temp,max_temp,clouds,wind
0,georgetown,MY,5.4112,100.3354,88,75.97,77,20,5.61
2,cape town,ZA,-33.9258,18.4232,82,67.1,69.01,0,16.11
3,kapaa,US,22.0752,-159.319,69,78.35,78.8,20,18.41
4,nelson bay,AU,-32.7167,152.15,78,72.61,73.99,75,9.22
5,east london,ZA,-33.0153,27.9116,79,70.16,70.16,92,11.16
6,hermanus,ZA,-34.4187,19.2345,92,60.01,60.01,0,5.37
7,kalmunai,LK,7.4167,81.8167,85,77.04,77.04,100,13.87
8,vao,NC,-22.6667,167.4833,74,79.61,79.61,95,37.76
9,adilabad,IN,19.6667,78.5333,32,59.34,59.34,1,2.86
10,ilmajoki,FI,62.7333,22.5667,77,-5.8,-5.8,0,1.14
11,rikitea,PF,-23.1203,-134.9692,75,78.6,78.6,43,15.73
14,punta arenas,CL,-53.15,-70.9167,67,59,59,75,28.77
16,mount gambier,AU,-37.8333,140.7667,63,62.6,62.6,90,13.8
17,sungaipenuh,ID,-2.0833,101.3833,95,64.44,64.44,76,3
18,nuevo progreso,MX,23.1667,-97.95,51,68,68,44,4
19,ancud,CL,-41.8697,-73.8203,52,68,68,0,16.11
20,ushuaia,AR,-54.8,-68.3,71,55.4,55.4,75,26.46
21,derzhavinsk,KZ,51.1,66.3167,98,25.41,25.41,100,20.8
22,cabo san lucas,MX,22.8909,-109.9124,50,75.49,77,40,8.05
23,busselton,AU,-33.65,115.3333,80,66.99,66.99,52,3
24,tuktoyaktuk,CA,69.4541,-133.0374,74,-34.6,-34.6,1,3.44
25,codrington,AU,-38.2667,141.9667,64,63.25,63.25,55,10.92
26,puerto ayora,EC,-0.7393,-90.3518,70,84.2,84.2,0,17.27
27,emerald,AU,-23.5333,148.1667,54,83.25,84.2,96,8.05
28,nanortalik,GL,60.1432,-45.2371,85,15.94,15.94,0,18.95
29,upernavik,GL,72.7868,-56.1549,87,-6.74,-6.74,100,4.12
30,zinder,NE,13.8072,8.9881,17,69.35,69.35,0,12.66
31,touros,BR,-5.1989,-35.4608,78,78.8,78.8,20,8.05
32,roald,NO,62.5833,6.1333,80,22.15,24.8,0,10.36
33,qaanaaq,GL,77.484,-69.3632,84,-12.33,-12.33,100,0.83
34,avera,US,33.194,-82.5271,33,44.04,44.6,1,8.05
35,atuona,PF,-9.8,-139.0333,74,78.42,78.42,2,13.24
36,pirovskoye,RU,57.6267,92.2658,95,11.08,11.08,100,7.87
37,dongsheng,CN,39.8161,109.9776,71,13.89,13.89,18,16.75
38,pisco,PE,-13.7,-76.2167,68,72.79,73.4,0,17.27
39,mataura,NZ,-46.1927,168.8643,61,68.16,68.16,90,7.2
40,sabang,ID,5.8933,95.3214,78,81.9,81.9,35,18.23
41,hobart,AU,-42.8794,147.3294,63,60.67,62.01,75,3.44
42,kodiak,US,57.79,-152.4072,80,35.6,35.6,90,14.97
43,norman wells,CA,65.282,-126.8329,69,-18.4,-18.4,75,8.05
44,sortland,NO,68.6949,15.4162,92,18.72,25,69,2.77
45,joensuu,FI,62.6012,29.7632,84,-2.2,-2.2,29,3.44
47,ribeira grande,PT,38.5167,-28.7,66,57.07,57.07,41,34.9
48,khatanga,RU,71.9667,102.5,86,-22.92,-22.92,75,5.97
49,saint george,US,37.1041,-113.5841,39,66.2,66.2,90,2.21
50,tizimin,MX,21.15,-88.15,72,65.52,65.52,88,4.97
51,port elizabeth,ZA,-33.918,25.5701,88,66.2,66.2,0,6.91
52,kaitangata,NZ,-46.2817,169.8464,71,66.99,66.99,87,3
53,yulara,AU,-25.2406,130.9889,23,84.2,84.2,53,18.41
54,mahon,ES,39.8885,4.2658,94,55.4,55.4,75,6.91
56,meulaboh,ID,4.1363,96.1285,88,75.76,75.76,98,4.7
58,jamestown,US,42.097,-79.2353,86,25.05,26.01,90,14.97
59,teeli,RU,51.0333,90.2333,82,-1.34,-1.34,0,1.12
60,santona,ES,43.4439,-3.4576,52,63.1,64.4,0,25.32
61,saint-philippe,RE,-21.3585,55.7679,73,73.83,78.8,75,5.75
62,tasiilaq,GL,65.6145,-37.6368,93,19.4,19.4,90,4.61
63,esperance,AU,-33.8667,121.9,72,66.2,66.2,60,16.11
64,kulhudhuffushi,MV,6.6221,73.07,75,80.28,80.28,36,2.42
65,machakos,KE,-1.5167,37.2667,60,68,68,0,8.05
66,bethel,US,41.3712,-73.414,86,27.7,28.4,90,10.36
67,hilo,US,19.7297,-155.09,57,73.98,78.8,90,13.8
68,saskylakh,RU,71.9167,114.0833,91,-2.88,-2.88,100,14.2
69,grindavik,IS,63.8424,-22.4338,60,35.6,35.6,0,18.41
70,vaini,TO,-21.2,-175.2,89,82.4,82.4,75,8.05
71,santiago del estero,AR,-27.7951,-64.2615,89,65.34,65.34,100,12.21
72,fortuna,US,40.5982,-124.1573,66,53.02,54,1,9.22
73,solnechnyy,RU,50.7214,136.6319,82,-25.13,-25.13,100,3.49
74,skjervoy,NO,70.0311,20.9714,88,26.64,26.64,35,12.66
75,namatanai,PG,-3.6667,152.4333,78,80.51,80.51,100,8.05
78,carutapera,BR,-1.195,-46.02,81,78.76,78.76,76,7.56
80,bambous virieux,MU,-20.3428,57.7575,78,78.89,79,40,6.91
81,lavrentiya,RU,65.5833,-171,86,5.29,5.29,100,24.92
82,huarmey,PE,-10.0681,-78.1522,76,70.9,70.9,27,7.38
83,petropavlovsk-kamchatskiy,RU,53.0452,158.6483,73,17.6,17.6,40,6.71
84,makakilo city,US,21.3469,-158.0858,65,75.42,78.8,75,9.22
85,avarua,CK,-21.2078,-159.775,74,84.2,84.2,82,4.61
86,butaritari,KI,3.0707,172.7902,84,82,82,85,17.94
87,xining,CN,36.6167,101.7667,64,16,16,82,2.46
88,el alto,PE,-4.2714,-81.2147,78,73.2,73.2,4,13.11
89,sesheke,ZM,-17.4759,24.2968,93,68.83,68.83,100,3.89
90,capaccio,IT,40.4244,15.0809,88,45,45,0,1.01
91,narsaq,GL,60.9167,-46.05,54,23,23,40,3.44
93,yellowknife,CA,62.456,-114.3525,70,-11.09,-11,75,12.66
94,yenangyaung,MM,20.4667,94.8833,38,56.39,56.39,0,2.3
95,half moon bay,US,37.4636,-122.4286,82,56.97,61,1,8.05
96,otradnoye,RU,59.7775,30.8181,86,21.97,23,90,11.18
97,saint-augustin,CA,51.226,-58.6502,89,18.09,18.09,99,13.89
98,kahului,US,20.8947,-156.47,61,75.25,78.8,20,13.8
99,port alfred,ZA,-33.5906,26.891,91,66.99,66.99,26,1.01
101,boueni,YT,-12.9025,45.0761,78,82.4,82.4,0,5.75
102,bathsheba,BB,13.2167,-59.5167,69,78.8,78.8,20,20.71
103,kenai,US,60.5544,-151.2583,62,12.85,14,90,6.64
104,puerto montt,CL,-41.4698,-72.9447,63,64.4,64.4,0,12.66
105,san rafael,AR,-34.6177,-68.3301,37,69.58,69.58,7,4.85
106,chicama,PE,-7.8447,-79.1469,78,71.6,71.6,0,10.36
107,sisimiut,GL,66.9395,-53.6735,81,-5.3,-5.3,0,11.92
108,iqaluit,CA,63.7506,-68.5145,69,-18.4,-18.4,90,3.44
109,arraial do cabo,BR,-22.9661,-42.0278,78,77.76,78.8,0,12.66
110,albany,US,42.6001,-73.9662,87,26.01,26.01,100,1.01
111,kruisfontein,ZA,-34.0033,24.7314,62,69.4,69.4,0,6.49
112,jasper,US,37.2001,-94.3502,40,47.39,50,1,4.61
113,herat,AF,34.5,62,77,38.14,38.14,0,11.52
114,aksu,CN,41.1231,80.2644,77,23.45,23.45,0,3.78
115,rio gallegos,AR,-51.6226,-69.2181,40,73.4,73.4,40,29.93
117,lorengau,PG,-2.0226,147.2712,74,84.15,84.15,79,10.25
118,loviisa,FI,60.4566,26.2251,96,25,25,100,11.01
119,kristiansund,NO,63.1115,7.732,79,21.2,21.2,18,4.61
120,bluff,NZ,-46.6,168.3333,87,59.67,59.67,85,13.02
121,banjar,ID,-8.19,114.9675,83,80.6,80.6,40,11.5
122,pacifica,US,37.6138,-122.4869,82,54.77,57.99,1,8.05
123,krasne,UA,49.9145,24.6134,87,35.31,35.6,90,8.95
125,beaufort,MY,5.3473,115.7455,89,78.4,78.8,20,5.75
126,trincomalee,LK,8.5711,81.2335,76,78.39,78.39,99,17.13
128,uni,RU,57.7535,51.4923,95,4.55,4.55,87,7.4
129,la rioja,ES,42.25,-2.5,93,42.8,42.8,0,2.3
130,mezhevoy,RU,55.1711,58.7814,97,14.13,14.13,100,1.7
131,umm lajj,SA,25.0213,37.2685,81,73.98,73.98,0,8.84
132,komsomolskiy,UZ,40.4272,71.7189,60,35.6,35.6,13,4.61
133,salisbury,GB,51.0693,-1.7957,87,48.49,48.99,75,19.57
134,kenora,CA,49.8167,-94.4337,79,21.09,21.2,75,16.11
135,sur,OM,22.5667,59.5289,68,65.48,65.48,3,0.49
136,college,US,64.8569,-147.8028,64,-10.88,-7.6,20,5.75
137,buala,SB,-8.145,159.5921,90,78.24,78.24,99,11.07
138,ponta do sol,PT,32.6667,-17.1,75,54.68,60.01,59,4.9
139,coihaique,CL,-45.5752,-72.0662,43,75.2,75.2,0,3.44
140,lompoc,US,34.6391,-120.4579,72,58.82,62.6,20,12.66
141,nouadhibou,MR,20.931,-17.0347,56,68,68,0,13.8
142,lebu,CL,-37.6167,-73.65,81,59.22,59.22,15,12.33
143,leh,IN,34.1667,77.5833,67,5.74,5.74,99,1.68
144,vanimo,PG,-2.6741,141.3028,88,77.49,77.49,100,7.38
145,colac,AU,-38.3333,143.5833,85,57.67,62.01,17,4
146,neyshabur,IR,36.2133,58.7958,72,37.87,37.87,0,0.43
147,ahar,IR,38.4774,47.0699,89,32.76,32.76,0,7.05
148,nikolskoye,RU,59.7035,30.7861,86,21.97,23,90,11.18
149,ereymentau,KZ,51.6199,73.1033,96,23.54,23.54,100,22.08
150,abnub,EG,27.2696,31.1511,71,53.6,53.6,0,6.91
151,obidos,BR,-1.9175,-55.5181,89,77.27,77.27,96,4.56
152,clyde river,CA,70.4692,-68.5914,68,-32.8,-32.8,1,3.44
153,sitka,US,57.0531,-135.33,60,37.4,37.4,20,5.75
154,ambon,ID,-3.6954,128.1814,78,82.4,82.4,40,4.61
155,puerto del rosario,ES,28.5004,-13.8627,82,64.4,64.4,90,9.22
156,kirakira,SB,-10.4544,161.9205,84,80.4,80.4,90,16.33
157,havelock,US,34.8791,-76.9013,61,42.01,43,90,10.36
158,kasempa,ZM,-13.4584,25.8338,95,65.32,65.32,100,6.64
159,lae,PG,-6.7221,146.9847,78,78.8,78.8,75,3.44
161,guerrero negro,MX,27.9769,-114.0611,30,72.68,72.68,98,12.28
162,aginskoye,RU,51.1,114.53,80,-19.35,-19.35,0,12.15
163,kushnarenkovo,RU,55.105,55.3508,93,23,23,90,11.18
164,kasongo-lunda,CD,-6.4667,16.8167,83,72.43,72.43,100,0.69
165,alekseyevka,RU,50.6309,38.6903,95,34.02,34.02,99,6.08
166,sibolga,ID,1.7427,98.7792,82,75.16,75.16,99,3.83
167,tailai,CN,46.3833,123.4,79,-13.92,-13.92,0,5.28
168,astana,KZ,51.1801,71.446,86,19.4,19.4,75,13.42
169,poum,NC,-20.2333,164.0167,81,77.52,77.52,100,25.81
170,beringovskiy,RU,63.05,179.3167,95,10.67,10.67,100,11.27
172,talnakh,RU,69.4865,88.3972,82,-13.14,-13.14,98,5.37
173,victoria,HK,22.2855,114.1577,74,60.62,63,77,1.01
174,mar del plata,AR,-38.0023,-57.5575,82,66.56,66.99,0,9.22
175,faanui,PF,-16.4833,-151.75,76,81.59,81.59,2,14.25
177,polewali,ID,-3.4324,119.3435,71,80.78,80.78,100,1.95
178,shemursha,RU,54.8866,47.5189,93,8.11,8.11,82,1.7
179,new norfolk,AU,-42.7826,147.0587,54,59.32,62.01,97,1.99
180,yantai,CN,37.5333,121.4,83,29.68,29.68,8,10.71
181,hithadhoo,MV,-0.6,73.0833,71,81.9,81.9,72,4.16
183,lima,PE,-12.0432,-77.0282,73,72.32,73,0,9.22
184,asau,RO,46.4333,26.4,75,32,32,26,5.03
185,cochrane,CA,51.1834,-114.4687,92,14,16,90,13.8
186,san patricio,US,28.017,-97.5169,40,66.56,69.8,1,14.97
187,kibala,TD,9.1104,18.3463,21,80.6,80.6,0,6.42
188,cidreira,BR,-30.1811,-50.2056,87,77.72,77.72,29,12.95
189,gorontalo,ID,0.5412,123.0595,84,78.57,78.57,100,1.41
190,anadyr,RU,64.75,177.4833,73,12.2,12.2,75,17.9
191,praya,CV,14.9215,-23.5087,73,69.8,69.8,0,14.97
192,vardo,NO,70.3705,31.1107,73,21.2,21.2,40,18.41
193,castro,BR,-24.7911,-50.0119,89,68.23,68.23,87,1.57
194,chuy,UY,-33.6971,-53.4616,87,73.44,73.44,59,5.82
195,palmer,US,42.1584,-72.3287,86,33.13,33.8,90,12.66
198,kandalaksha,RU,67.162,32.4123,93,6.71,6.71,14,4.94
199,altamira,BR,-3.2033,-52.2064,93,74.97,74.97,100,1.63
200,caravelas,BR,-17.7125,-39.2481,84,76.71,76.71,100,6.15
201,cayenne,GF,4.9333,-52.3333,94,78.8,78.8,75,4.61
202,bikin,RU,46.8161,134.26,82,-20.29,-20.29,53,5.41
203,severo-kurilsk,RU,50.6789,156.125,93,22.98,22.98,87,47.38
204,vallenar,CL,-28.5708,-70.7581,50,66.43,66.43,47,2.89
205,priyutnoye,RU,46.1011,43.5072,77,41.49,41.49,0,4.03
206,broken hill,AU,-31.95,141.4333,37,68,68,0,12.66
207,aleksandrovsk-sakhalinskiy,RU,50.8975,142.1561,85,-18.36,-18.36,100,10.42
208,tacoronte,ES,28.4769,-16.4102,79,59.67,62.01,7,8.43
209,bilma,NE,18.6853,12.9164,28,62.64,62.64,0,9.06
210,flinders,AU,-34.5833,150.8552,55,72,72,44,5.99
211,atbasar,KZ,51.8,68.3333,97,24.58,24.58,100,19.33
212,ostrovnoy,RU,68.0531,39.5131,96,24.87,24.87,100,17.38
213,eyrarbakki,IS,63.863,-21.1481,51,32,32,0,14.97
214,sabha,LY,27.0377,14.4283,59,50.58,50.58,1,5.95
216,karratha,AU,-20.7377,116.8463,80,82.89,82.89,91,17.72
217,mahebourg,MU,-20.4081,57.7,78,78.8,78.8,40,6.91
218,gambela,ET,8.25,34.5833,34,81.81,81.81,0,3.2
219,palana,RU,59.1167,159.9667,91,-5.17,-5.17,28,7.92
220,korla,CN,41.7597,86.1469,81,24.21,24.21,8,2.71
221,vryburg,ZA,-26.9566,24.7284,95,59.67,59.67,100,8.28
222,bengkulu,ID,-3.8004,102.2655,86,75.88,75.88,100,6.24
223,boa vista,BR,2.8197,-60.6733,58,84.2,84.2,75,8.05
224,mumford,GH,5.2618,-0.759,87,79.9,79.9,4,9.93
225,honggang,CN,46.4667,124.8667,81,-15.54,-15.54,0,7.27
226,sehithwa,BW,-20.4667,22.7167,89,71.76,71.76,100,6.35
227,aykhal,RU,66,111.5,83,-23.51,-23.51,100,11.01
228,dikson,RU,73.5069,80.5464,84,-24.02,-24.02,2,13.31
230,port hedland,AU,-20.3167,118.5667,79,84.2,84.2,40,11.5
231,sistranda,NO,63.7256,8.834,86,17.6,17.6,40,12.66
232,saint andrews,US,34.0454,-81.1293,65,41.23,42.8,75,14.03
233,torbay,CA,47.6666,-52.7314,80,26.91,28.99,90,10.36
234,taoudenni,ML,22.6783,-3.9836,23,70.59,70.59,93,12.46
236,bressuire,FR,46.9167,-0.5,96,53.01,53.01,96,15.46
237,geraldton,AU,-28.7667,114.6,78,73.4,73.4,75,17.27
238,hornepayne,CA,49.2138,-84.7705,95,4.93,4.93,1,3.62
239,udachnyy,RU,66.4167,112.4,83,-26.07,-26.07,100,22.21
240,hofn,IS,64.2539,-15.2082,96,31.19,31.19,100,15.37
241,vilyuysk,RU,63.7553,121.6247,82,-34.19,-34.19,100,9.98
242,bosaso,SO,11.2842,49.1816,67,69.98,69.98,48,2.13
244,klaksvik,FO,62.2266,-6.589,75,35.6,35.6,40,11.5
245,yeniseysk,RU,58.4497,92.1703,92,-2.65,-2.65,100,0.85
246,nishihara,JP,26.1842,127.7558,54,55.06,59,40,6.91
247,takoradi,GH,4.8845,-1.7554,87,79.09,79.09,1,8.01
248,sandy bay,AU,-42.913,147.3532,63,60.84,62.01,75,3.44
249,barrow,US,71.2906,-156.7887,69,-23.8,-23.8,1,13.8
250,thinadhoo,MV,0.5333,72.9333,69,82.62,82.62,85,5.7
251,kudahuvadhoo,MV,2.6708,72.8944,73,82.24,82.24,98,11.16
252,shache,CN,38.4167,77.2406,80,26.35,26.35,100,1.23
253,isangel,VU,-19.55,169.2667,70,84.2,84.2,20,20.71
254,grand gaube,MU,-20.0064,57.6608,75,79,79,10,1.99
255,dingle,PH,10.9995,122.6711,86,77.14,77.14,99,12.68
256,camacha,PT,33.0833,-16.3333,77,62.6,62.6,75,1.14
257,fort nelson,CA,58.8053,-122.7002,71,-7.6,-7.6,90,10.36
258,vieux-habitants,GP,16.0589,-61.7659,73,77,77,90,6.91
259,asfi,MA,32.2994,-9.2372,82,60.53,60.53,95,7.43
260,ati,TD,13.2154,18.3353,17,72.84,72.84,0,12.12
261,san-pedro,CI,4.7485,-6.6363,92,77.83,77.83,91,5.75
262,atambua,ID,-9.1061,124.8925,84,76.42,76.42,100,1.63
263,kawalu,ID,-7.3817,108.2082,85,74.01,74.01,83,2.28
264,mawlaik,MM,23.6333,94.4167,70,54.48,54.48,0,1.05
266,port-gentil,GA,-0.7193,8.7815,89,82.4,82.4,40,6.91
267,awbari,LY,26.5921,12.7805,61,47.88,47.88,0,2.24
268,wanaka,NZ,-44.7,169.15,56,69.01,69.01,60,1.01
269,portlethen,GB,57.0547,-2.1307,70,38.16,39.2,75,17.27
270,belaya glina,RU,46.07,40.86,81,44.2,44.2,68,4.45
271,tual,ID,-5.6667,132.75,77,82.72,82.72,92,22.19
272,deniliquin,AU,-35.5333,144.9667,51,68,68,0,1.01
273,copiapo,CL,-27.3667,-70.3333,68,64.4,64.4,0,16.11
274,woodbridge,US,40.5576,-74.2846,86,32.7,34,90,8.05
275,ushirombo,TZ,-3.4919,31.9639,95,63.43,63.43,56,3.2
276,leningradskiy,RU,69.3833,178.4167,87,-4.72,-4.72,100,16.93
277,petersburg,US,37.2279,-77.4019,48,38.66,39.2,90,11.5
278,muscat,OM,23.6139,58.5922,77,66.2,66.2,0,4.61
279,waipawa,NZ,-41.4122,175.5153,56,70.09,72,0,10.36
280,artesia,US,33.8658,-118.0831,52,67.84,73.4,1,13.8
281,canon city,US,38.441,-105.2424,24,66.2,66.2,1,9.22
282,roebourne,AU,-20.7833,117.1333,79,82.8,82.8,92,17.05
283,zhigansk,RU,66.7697,123.3711,84,-32.91,-32.91,100,14.92
284,inirida,CO,3.8653,-67.9239,84,77.85,77.85,81,2.44
285,samarai,PG,-10.6167,150.6667,67,84.13,84.13,97,6.33
286,mehamn,NO,71.0357,27.8492,90,23.88,23.88,91,17.34
287,thompson,CA,55.7435,-97.8558,92,15.8,15.8,90,4.61
288,new ross,IE,52.3967,-6.9367,92,45,45,92,4
289,grenville,GD,12.1167,-61.6167,74,80.6,80.6,40,19.28
290,ahipara,NZ,-35.1667,173.1667,57,71.62,71.62,0,5.66
291,alofi,NU,-19.0595,-169.9187,84,84.2,84.2,100,12.66
292,keelung,TW,25.1283,121.7419,67,60.94,62.01,20,16.11
293,bonthe,SL,7.5264,-12.505,86,78.67,78.67,0,7.67
294,ilulissat,GL,69.2167,-51.1,77,-5.8,-5.8,20,21.85
295,vila velha,BR,-20.3297,-40.2925,78,78.91,79,0,9.22
296,oktyabrskoye,RU,43.0645,44.7417,86,30.2,30.2,39,4.47
297,innisfail,AU,-17.5333,146.0333,64,83.84,83.84,39,1.01
298,burns lake,CA,54.2331,-125.7533,68,19.4,19.4,100,4.61
299,cherskiy,RU,68.75,161.3,85,-1.52,-1.52,0,2.77
300,isiro,CD,2.7739,27.616,66,68.04,68.04,1,1.32
301,los llanos de aridane,ES,28.6585,-17.9182,72,59.88,64.4,90,10.36
302,atherton,GB,53.5237,-2.4935,87,45.77,46,100,1.99
303,milkovo,RU,54.7167,158.6167,91,-0.54,-0.54,100,2.1
304,karla,EE,59.3723,24.9275,93,23.32,24.01,90,8.05
305,naliya,IN,23.2667,68.8333,86,63.81,63.81,0,7.27
306,raga,SS,8.4596,25.678,32,73.9,73.9,18,3.65
308,san martin,AR,-33.081,-68.4681,49,69.8,69.8,40,2.3
309,yamada,JP,39.4667,141.95,85,27.05,27.05,2,10.69
310,lumut,MY,4.2323,100.6298,94,77,77,20,5.46
311,arua,UG,3.0201,30.9111,31,69.94,69.94,47,1.41
313,harper,LR,4.375,-7.7169,89,78.3,78.3,8,5.19
314,yar-sale,RU,66.8333,70.8333,93,3.25,3.25,96,5.61
315,ormara,PK,25.2088,64.6357,59,68.59,68.59,0,5.86
316,broome,US,42.2506,-75.833,86,24.04,26.01,90,10.36
317,banda aceh,ID,5.5577,95.3222,79,78.17,78.17,53,10.25
318,katherine,AU,-14.4667,132.2667,78,82.4,82.4,75,6.91
319,san jeronimo,PE,-11.9472,-75.2829,69,53.42,53.42,79,3.89
320,ternate,ID,0.8,127.4,77,81.16,81.16,74,7.34
321,provideniya,RU,64.3833,-173.3,90,5.97,5.97,100,18.9
322,luderitz,NA,-26.6481,15.1594,85,64.71,64.71,1,8.55
323,udaipur,IN,24.5712,73.6918,29,61.34,61.34,14,4.12
324,salug,PH,8.1147,122.7833,79,79.79,79.79,98,10.18
325,borkenes,NO,68.774,16.1739,89,23.05,26.01,70,11.01
326,ustye,RU,59.6304,39.736,97,17.78,17.78,98,4.29
327,viedma,AR,-40.8135,-62.9967,43,72,72,39,11.52
328,souris,CA,49.6172,-100.2612,86,25.92,27,20,10.36
329,skibbereen,IE,51.55,-9.2667,93,42.8,42.8,40,14.97
330,kedrovyy,RU,56.1667,91.8167,84,-2.2,-2.2,40,8.72
331,porto novo,BJ,6.4965,2.6036,84,84.2,84.2,20,12.66
332,humaita,BR,-7.5061,-63.0208,90,76.39,76.39,100,1.14
333,hambantota,LK,6.1241,81.1185,81,76.28,76.28,25,14.65
334,teknaf,BD,20.8624,92.3058,62,57.81,57.81,0,7.23
335,bac lieu,VN,9.285,105.7244,82,75.27,75.27,47,13.06
337,ostersund,SE,63.1792,14.6357,85,4.12,5,75,3.85
338,north platte,US,41.1239,-100.7654,57,50,50,1,9.22
339,bredasdorp,ZA,-34.5322,20.0403,88,59,59,0,4.61
340,singaraja,ID,-8.112,115.0882,75,80.38,80.38,100,1.72
341,ghanzi,BW,-21.5667,21.7833,90,68.72,68.72,100,8.93
342,mizan teferi,ET,6.9833,35.5833,54,65.7,65.7,0,2.59
343,cockburn town,TC,21.4612,-71.1419,79,75.18,75.18,31,16.62
344,the valley,AI,18.217,-63.0578,73,78.85,79,75,9.22
345,karrapur,IN,23.95,78.85,35,57.34,57.34,25,6.82
346,ahuimanu,US,21.4447,-157.8378,65,75.87,77,75,8.05
347,kargopol,RU,61.5071,38.9456,94,2.79,2.79,3,3.2
348,el naranjo,MX,21.4667,-98.6,67,68.52,68.52,37,8.1
349,tautira,PF,-17.7333,-149.15,62,87.4,87.8,20,5.75
351,kamenka,RU,51.3223,42.7678,97,33.01,33.01,100,4.43
352,qianan,CN,44.9932,124.0581,82,-17.86,-17.86,0,8.01
353,airai,TL,-8.9266,125.4092,97,66.4,66.4,100,2.91
354,fort walton beach,US,30.4058,-86.6188,30,53.78,55.4,1,12.66
355,vila,PT,42.0304,-8.1588,95,52,52,100,21.99
356,la ronge,CA,55.1001,-105.2842,86,19.4,19.4,100,11.5
357,eqbaliyeh,IR,35.3022,51.5358,65,40.73,42.8,0,9.22
358,tabou,CI,4.423,-7.3528,90,78.13,78.13,24,5.28
359,hawkesbury,CA,45.6001,-74.616,93,28.13,28.4,90,6.91
360,rocha,UY,-34.4833,-54.3333,94,70.48,70.48,89,7.23
361,morondava,MG,-20.2833,44.2833,77,82.81,82.81,28,5.53
362,waitati,NZ,-45.75,170.5667,52,71.29,71.29,73,7.67
363,tiksi,RU,71.6872,128.8694,93,-0.72,-0.72,100,14.14
364,lokosovo,RU,61.1333,74.8167,97,15.17,15.17,100,3.44
365,pandan,PH,14.0453,124.1694,83,78.64,78.64,91,15.43
366,catamarca,AR,-28.4696,-65.7852,99,60.03,63,100,1.99
367,chokurdakh,RU,70.6333,147.9167,89,-10.57,-10.57,40,6.31
368,teguise,ES,29.0605,-13.564,88,60.8,60.8,20,6.91
369,shingu,JP,33.7333,135.9833,52,41,41,40,17.27
371,djibo,BF,14.1022,-1.6306,18,69.96,69.96,0,7.56
372,katiola,CI,8.1333,-5.1,37,84.2,84.2,5,4.61
374,egvekinot,RU,66.3167,-179.1667,91,0.9,0.9,100,12.48
375,vuktyl,RU,63.8567,57.3094,97,15.55,15.55,99,8.55
377,sabzevar,IR,36.2126,57.6819,64,41.22,41.22,0,6.15
378,belle fourche,US,44.6714,-103.8522,24,55.4,55.4,1,3.44
379,westport,US,41.1415,-73.3579,80,31.32,33.8,90,6.91
380,longyearbyen,SJ,78.2186,15.6401,86,21.2,21.2,40,6.91
381,henties bay,NA,-22.116,14.2845,87,64.99,64.99,9,6.08
382,alice springs,AU,-23.7,133.8833,18,82.4,82.4,0,18.41
383,faya,SA,18.3851,42.4509,62,56.3,57.2,0,3.15
384,hojai,IN,26,92.8667,81,55.53,55.53,0,2.93
385,darab,IR,28.7519,54.5444,41,47.97,47.97,0,1.95
386,staryy nadym,RU,65.6118,72.6842,96,10.31,10.31,87,6.06
387,kupino,RU,54.3663,77.2981,97,18.43,18.43,100,16.33
388,kapoeta,SS,4.7717,33.5903,31,80.44,80.44,0,11.25
389,kharsawan,IN,22.8,85.8333,47,50.7,50.7,0,3.02
390,beniganj,IN,27.2833,80.45,60,51.1,51.1,0,3.31
391,gizo,SB,-8.103,156.8419,74,83.7,83.7,100,11.68
392,yinchuan,CN,38.4681,106.2731,68,24.57,24.57,3,3.76
393,hirara,JP,24.8,125.2833,67,63.34,64.4,20,11.5
394,algiers,DZ,36.7525,3.042,65,58.01,58.01,0,1.54
395,opunake,NZ,-39.4556,173.8583,62,67.98,70,0,5.99
396,san quintin,MX,30.4833,-115.95,66,64.15,64.15,89,14.83
397,fairbanks,US,64.8378,-147.7164,59,-10.7,-7.6,1,5.75
398,rio grande,BR,-32.035,-52.0986,94,72.18,73.4,75,11.5
399,cedar city,US,37.6775,-113.0619,50,55.4,55.4,1,17.27
400,jiuquan,CN,39.7432,98.5174,67,19.18,19.18,7,0.78
401,bauru,BR,-22.3147,-49.0606,88,71.73,73.4,90,2.3
402,ruwi,OM,23.5996,58.5507,77,66.2,66.2,0,4.61
403,ulladulla,AU,-35.35,150.4667,49,66.97,68,40,12.66
404,bilibino,RU,68.0546,166.4372,86,-0.72,-0.72,0,5.39
405,grimshaw,CA,56.1834,-117.6027,71,-4,-4,90,12.66
406,trairi,BR,-3.2778,-39.2689,77,78.46,78.46,1,10.29
407,bida,NG,9.0833,6.0167,26,83.43,83.43,0,1.21
408,bom despacho,BR,-19.7364,-45.2522,90,70.61,70.61,100,3.44
409,gornopravdinsk,RU,60.05,69.9,97,11.71,11.71,91,4.21
410,katol,IN,21.2667,78.5833,62,55.4,55.4,21,3.44
411,aklavik,CA,68.2191,-135.0107,75,-27.4,-27.4,20,6.91
412,ust-tsilma,RU,65.441,52.1498,95,9.82,9.82,100,6.64
413,anjozorobe,MG,-18.4,47.8667,88,64.4,64.4,20,5.75
414,oistins,BB,13.0667,-59.5333,69,78.8,78.8,20,20.71
415,rorvik,NO,64.8621,11.2373,89,22.6,22.6,5,14.16
416,axim,GH,4.8699,-2.2405,87,78.94,78.94,3,8.43
417,carlyle,US,38.6103,-89.3726,72,34.45,35.01,0,6.29
418,kanigiri,IN,15.4,79.5167,94,67.41,67.41,1,2.08
419,kloulklubed,PW,7.0419,134.2556,78,80.6,80.6,75,5.75
420,brae,GB,60.3964,-1.353,75,37.4,37.4,75,23.02
421,souillac,MU,-20.5167,57.5167,78,78.8,78.8,40,6.91
422,hanting,CN,36.7708,119.2108,90,30.87,30.87,0,9.71
423,san jose,US,37.3394,-121.895,67,58.78,61,75,10.36
424,aloleng,PH,16.1307,119.7824,69,76.78,76.78,1,9.62
425,bahia blanca,AR,-38.7196,-62.2724,47,72.5,72.5,6,9.82
426,batemans bay,AU,-35.7167,150.1833,60,66.38,70,78,4
427,gardanne,FR,43.4549,5.4691,91,49.42,54,62,3.11
428,kitimat,CA,54.0524,-128.6534,83,35.01,35.01,82,3.87
429,pauini,BR,-7.7136,-66.9764,91,76.6,76.6,76,3.11
430,sonneberg,DE,50.35,11.1667,95,43.68,48,100,8.59
431,zemio,CF,5.0314,25.1361,42,70.38,70.38,19,1.63
432,te anau,NZ,-45.4167,167.7167,73,63.41,63.41,99,3.15
433,muros,ES,42.7762,-9.0603,83,57.43,57.99,95,13
434,baykit,RU,61.67,96.37,86,-10.12,-10.12,100,2.15
435,beloha,MG,-25.1667,45.05,85,77.68,77.68,16,12.86
436,cairns,AU,-16.9167,145.7667,65,86.13,88,75,2.3
437,waingapu,ID,-9.6567,120.2641,78,81.12,81.12,95,11.1
438,narrabri,AU,-30.3167,149.7833,53,77,77,40,5.75
439,shahrud,IR,36.4182,54.9763,69,36.7,36.7,0,1.07
440,quiniput,PH,7.1783,122.221,80,80.1,80.1,99,3.56
441,show low,US,34.2542,-110.0298,44,59,59,20,4.61
442,gat,IL,31.61,34.7642,51,61.45,62.01,91,1.99
443,hokitika,NZ,-42.7167,170.9667,67,65.73,65.73,0,8.37
444,lewistown,US,40.5992,-77.5714,74,27.64,28.4,90,8.05
445,wajir,KE,1.7471,40.0573,67,76.08,76.08,46,15.52
446,fort saint james,CA,54.4333,-124.25,93,8.35,8.35,100,2.55
447,manzanillo,CU,20.3433,-77.1167,73,68.97,68.97,0,4.74
448,sazonovo,RU,59.0919,35.2268,96,16.79,16.79,100,6.33
449,saint-francois,FR,46.4154,3.9054,76,54.75,55.4,90,5.75
450,uruzgan,AF,32.8333,66,72,37.71,37.71,23,4.05
451,seybaplaya,MX,19.65,-90.6667,52,69.8,69.8,40,11.5
452,isfana,KG,39.8386,69.5306,87,35.6,35.6,1,4.47
454,sargatskoye,RU,55.6101,73.4972,98,27,27,100,15.61
455,general roca,AR,-39.0333,-67.5833,28,86,86,0,3.44
456,ishigaki,JP,24.3448,124.1572,68,64.4,64.4,75,18.41
457,san cristobal,VE,7.7669,-72.225,54,86,86,20,6.91
458,inta,RU,66.0317,60.1659,95,10.6,10.6,100,13
459,prainha,BR,-1.8,-53.48,82,77.77,77.77,98,3.13
460,saint anthony,US,45.0205,-93.218,74,23,25,90,4.61
461,lolodorf,CM,3.2333,10.7333,97,71.28,71.28,100,1.68
462,la ligua,CL,-32.4524,-71.2311,82,62.6,62.6,20,10.36
463,kavaratti,IN,10.5669,72.642,71,80.64,80.64,4,3.8
464,salalah,OM,17.0151,54.0924,17,71.6,71.6,0,2.3
465,coahuayana,MX,18.7333,-103.6833,48,84.2,84.2,40,6.91
466,dafeng,CN,23.4517,108.5881,67,62.51,62.51,74,2.91
467,saldanha,ZA,-33.0117,17.9442,82,64.4,64.4,0,5.75
468,chunhuhub,MX,19.55,-88.6833,60,66.43,66.43,10,0.45
470,gobabis,NA,-22.45,18.9667,67,69.87,69.87,3,13.11
471,livingston,GB,55.9029,-3.5226,93,36.18,37.4,90,20.71
472,eucaliptus,BO,-17.5833,-67.5167,64,51.94,51.94,100,19.04
473,rudnya,RU,54.947,31.0934,97,17.92,17.92,100,14.43
474,eureka,US,40.8021,-124.1637,68,53.73,54,41,5.01
475,luganville,VU,-15.5333,167.1667,66,85.06,85.06,10,0.67
476,port lincoln,AU,-34.7333,135.8667,70,65.95,65.95,84,13.06
477,margate,GB,51.3813,1.3862,83,50.29,51.01,71,4
478,nizhniy kuranakh,RU,58.8353,125.4869,81,-29.02,-29.02,100,8.93
480,port blair,IN,11.6667,92.75,77,75.45,75.45,0,11.25
482,general pico,AR,-35.6566,-63.7568,47,72.14,72.14,33,6.31
483,pringsewu,ID,-5.3582,104.9744,93,73.8,73.8,100,2.71
484,joniskelis,LT,56.0253,24.1689,93,28.4,28.4,90,13.8
485,plettenberg bay,ZA,-34.0527,23.3716,52,71.26,71.26,0,5.03
486,jiancheng,CN,30.391,104.5491,78,43,43,0,1.72
487,shangqiu,CN,34.45,115.65,82,39,39,0,1.99
488,khani,GE,41.9563,42.9566,70,39.2,39.2,0,5.75
489,betare oya,CM,5.6,14.0833,34,70.61,70.61,82,3.33
490,taltal,CL,-25.4,-70.4833,73,65.64,65.64,26,5.61
491,dungarpur,IN,23.8333,73.7167,29,62.89,62.89,75,2.17
492,clarence town,AU,-32.5833,151.7833,78,72.34,73.99,75,9.22
493,maragogi,BR,-9.0122,-35.2225,78,78.15,78.15,35,8.77
494,nantucket,US,41.2835,-70.0995,93,37.22,37.4,90,20.71
495,pavlivka,UA,49.4414,28.4596,99,31.6,31.6,92,8.39
496,constitucion,CL,-35.3333,-72.4167,82,59.83,59.83,9,6.31
497,ursulo galvan,MX,22.7333,-98.3,52,75.33,75.99,0,1.01
498,mayo,US,38.8876,-76.5119,75,33.08,34,90,14.97
499,tiznit,MA,29.5833,-9.5,52,64.83,64.83,100,0.69
500,hasaki,JP,35.7333,140.8333,65,36.07,37.4,20,4.61
501,varhaug,NO,58.6147,5.6457,79,15.37,16,0,4.61
502,dauphin,CA,51.1494,-100.0502,80,24.8,24.8,1,2.3
503,prince rupert,CA,54.3161,-130.3201,49,45.14,46.4,20,8.05
504,bandipur,NP,27.9333,84.4167,68,41.29,41.29,0,2.91
505,qandala,SO,11.472,49.8728,51,72.14,72.14,74,6.69
506,mazyr,BY,52.0495,29.2456,98,22.71,22.71,86,7.54
507,maputo,MZ,-25.9653,32.5892,88,70.43,71.01,75,14.97
508,moose factory,CA,51.2585,-80.6094,85,0.54,1.4,75,4.61
509,whitianga,NZ,-36.8333,175.7,56,72.03,72.03,12,4.9
510,sao filipe,CV,14.8961,-24.4956,78,72.43,72.43,1,7.7
511,atar,MR,20.5169,-13.0499,20,70.25,70.25,0,6.6
512,rebrisoara,RO,47.2833,24.45,88,25,25,56,2.04
513,clemson,US,34.6834,-82.8374,38,39.4,41,1,16.11
514,dalvik,IS,65.9702,-18.5286,73,12.2,12.2,0,5.75
515,nizwa,OM,22.9333,57.5333,65,52.61,52.61,15,0.78
516,kimparana,ML,12.8347,-4.9244,17,70.77,70.77,0,8.05
519,japura,ID,-0.3167,102.35,95,73.15,73.15,99,1.95
520,vila franca do campo,PT,37.7167,-25.4333,62,54.5,57.2,20,26.46
521,tanglad,PH,11.2917,125.5768,87,78.3,78.3,99,11.21
522,comodoro rivadavia,AR,-45.8667,-67.5,31,78.8,78.8,0,9.22
523,lavumisa,SZ,-27.31,31.892,88,69.8,69.8,93,1.14
524,hamilton,US,39.1834,-84.5333,64,29.89,30.99,20,17.27
525,tuatapere,NZ,-46.1333,167.6833,73,64.99,64.99,86,10.58
526,lagoa,PT,39.05,-27.9833,65,56.1,56.1,35,34.16
527,chimbote,PE,-9.0853,-78.5783,78,69.85,69.85,13,6.76
528,wajid,SO,3.8093,43.2471,59,69.06,69.06,2,19.13
530,cherepovets,RU,59.1333,37.9,97,15.21,15.21,100,6.55
531,qui nhon,VN,13.7667,109.2333,86,71.73,71.73,57,12.46
532,okhotsk,RU,59.3833,143.3,82,-23.96,-23.96,99,12.91
534,padang,ID,-0.9492,100.3543,94,75.2,75.2,75,2.3
535,lasa,IT,46.6166,10.7002,86,30.67,33.01,0,3.62
536,longuenesse,FR,50.734,2.2352,88,51.67,52,18,7
537,ixtapa,MX,20.7,-105.2,78,75.2,75.2,40,9.22
538,samana,DO,19.2056,-69.3369,83,77,77,40,4.45
539,de-kastri,RU,51.4667,140.7833,81,-20.15,-20.15,100,8.88
540,bolshaya martynovka,RU,47.271,41.6679,89,42.96,42.96,97,6.38
541,tazovskiy,RU,67.4667,78.7,92,-3.24,-3.24,92,10.8
542,xinzhou,CN,38.4092,112.7333,63,22.44,22.44,0,1.1
543,kavieng,PG,-2.5744,150.7967,73,83.88,83.88,82,10.85
544,lock haven,US,41.137,-77.4469,75,25.39,27,99,9.98
545,marsh harbour,BS,26.5412,-77.0636,72,58.78,58.78,15,27.54
546,antalya,TR,36.7741,30.7178,82,56.84,60.01,75,5.75
547,kichera,RU,55.9375,110.0997,68,-24.75,-24.75,0,1.05
548,pevek,RU,69.7008,170.3133,92,8.98,8.98,100,10.76
550,wewak,PG,-3.5534,143.6268,90,76.68,76.68,100,7.83
551,erzin,TR,36.9559,36.2,70,55,55,100,15.01
552,novyy urengoy,RU,66.0833,76.6333,95,5.72,5.72,89,6.6
553,almirante,PA,9.3,-82.4,71,66,66,32,15.01
554,edd,ER,13.9297,41.6925,38,77.25,77.25,2,12.24
555,olafsvik,IS,64.8945,-23.7142,82,35.15,35.15,100,14.58
556,kokopo,PG,-4.352,152.2633,84,79.05,79.05,100,7.4
557,houma,US,29.5958,-90.7195,37,53.17,54,1,9.22
558,le creusot,FR,46.8071,4.4163,76,54.12,55.4,90,5.75
559,sangueya,GN,10.7,-14.3667,88,70.27,70.27,53,1.14
561,revelstoke,CA,50.9832,-118.2023,93,37.4,37.4,90,6.91
562,jutai,BR,-5.1833,-68.9,95,75,75,97,3.31
563,la palma,US,33.8464,-118.0467,46,68.31,73.4,75,10.36
564,orcotuna,PE,-11.9667,-75.3333,71,51.87,51.87,74,3.29
566,mandalgovi,MN,45.7625,106.2708,85,3.16,3.16,0,10.87
567,salima,MW,-13.7804,34.4587,78,71.29,71.29,14,2.66
568,prince george,CA,53.9166,-122.753,85,14.88,16,90,13.8
569,orsha,BY,54.5153,30.4053,97,18.68,18.68,100,14.23
570,dali,CN,25.7,100.1833,74,38.28,38.28,95,0.87
571,hearst,CA,49.6835,-83.6665,72,10.4,10.4,21,3.44
572,ayagoz,KZ,47.9714,80.4392,97,14.29,14.29,98,10.11
573,asyut,EG,27.181,31.1837,71,53.6,53.6,0,6.91
575,berlevag,NO,70.8578,29.0864,91,24.73,24.73,100,20.74
576,yumen,CN,40.2833,97.2,65,24.22,24.22,81,9.66
577,sao sebastiao,BR,-23.76,-45.4097,82,76.91,76.91,47,3.31
578,pangnirtung,CA,66.1451,-65.7125,63,-20.2,-20.2,20,3.44
579,hamamatsu,JP,34.7,137.7333,56,39.61,39.99,20,21.85
580,mulki,IN,13.1,74.8,83,73.4,73.4,0,5.79
581,parksville,CA,49.3163,-124.3195,83,44.42,44.6,100,24.16
582,vanderhoof,CA,54.0166,-124.0198,93,6.66,6.66,100,4.41
583,glace bay,CA,46.1969,-59.957,93,33.93,35.01,90,29.93
584,mian channun,PK,30.44,72.3543,39,54.21,54.21,24,5.64
585,yerbogachen,RU,61.2767,108.0108,81,-36.81,-36.81,26,4.16
586,nossa senhora das dores,BR,-10.4917,-37.1933,78,80.6,80.6,20,8.05
587,sorland,NO,67.667,12.6934,86,31.6,31.6,100,12.57
588,malinyi,TZ,-8.9333,36.1333,94,70.72,70.72,38,1.66
590,kyrksaeterora,NO,63.2906,9.0891,86,17.8,21.2,40,12.66
591,kaeo,NZ,-35.1,173.7833,50,73.9,73.9,3,7.27
592,nantai,CN,40.9241,122.8044,82,9.07,9.07,22,4.81
594,porto uniao,BR,-26.2381,-51.0783,94,68.65,68.65,100,0.6
595,chernyshevskiy,RU,63.0128,112.4714,83,-35.37,-35.37,70,6.93
596,san policarpo,PH,12.1791,125.5072,82,80.73,80.73,93,14.9
597,cervo,ES,43.6702,-7.4101,84,57.99,57.99,86,5.01
598,toamasina,MG,-18.1667,49.3833,94,75.2,75.2,20,4.61
599,split,HR,43.5089,16.4392,93,46.4,46.4,0,2.3
601,rize,TR,40.9044,40.8949,68,36.43,36.43,60,6.33
602,calamar,CO,10.2511,-74.9146,83,78.8,78.8,75,11.5
603,san carlos,VE,9.6612,-68.5827,44,81.3,81.3,24,2.21
604,lingyuan,CN,41.24,119.4011,80,7.74,7.74,100,0.63
607,havre-saint-pierre,CA,50.2334,-63.5986,50,24.8,24.8,90,10.36
608,magaria,NE,12.9983,8.9099,20,68.92,68.92,0,10.36
609,bereda,ES,43.2686,-7.5406,94,52.32,54,90,17
611,raduzhnyy,RU,62.0961,77.475,96,8.42,8.42,100,4.59
612,deputatskiy,RU,69.3,139.9,88,-26.77,-26.77,100,1.88
613,manggar,ID,-2.8833,108.2667,82,80.1,80.1,98,14.52
615,pondicherry,IN,11.93,79.83,81,73.58,73.58,53,10.22
616,kamenica,DE,50.8333,12.9167,87,46.54,46.99,90,9.22
617,kanye,BW,-24.9667,25.3327,93,60.85,60.85,100,19.95
618,altay,CN,47.8667,88.1167,79,13.51,13.51,90,1.25
619,kodinsk,RU,58.6881,99.1844,88,-8.3,-8.3,100,4.74
